/,Timestamp,TEAM_ID,MISSION_TIME,TIME_STAMP,PACKET_NO,ALTITUDE,PRESSURE,TEMP,BATTERY_VOLTAGE,GPS_TIME,GPS_LAT,GPS_LON,GPS_ALT,GPS_SATS,AX,AY,AZ,GXS,GYS,GZS,FLIGHTSOFTWARE_STATUS,SURFACE_TEMP,SMOKE,CARBON_DIOXIDE,AMMONIA,METHANE,CARBON_MONOXIDE,PITCH,ROLL,YAW,,,
rocket,2025-10-30T01:23:47.306Z,,,,,,,-0.01,,343.84,,,,,,,,,,,,,,,,,,,,,,,
rocket,2025-10-30T01:23:49.361Z,2024-ASI-ROCKETRY-036,2025-10-29,18:48:40,,26,-120.53,1004.69,25.49,0.02024-ASI-ROCKETRY-036,2025-10-29,18:48:40,27,-120.53,1004.69,25.49,0.01,06:52:45,IST,26.719899,84.304527,44.5,11,,,0.11,,,,,,,-0.01
rocket,2025-10-30T01:23:49.387Z,2024-ASI-ROCKETRY-036,2025-10-29,18:48:47,,28,-120.53,1004.69,25.49,0.012024-ASI-ROCKETRY-036,2025-10-29,18:48:47,30,-120.33,1004.65,25.5,0.01,06:53:18,IST,26.719899,84.304528,44.5,11,,,0.11,,,,,,,-0.01
rocket,2025-10-30T01:23:49.434Z,2024-ASI-ROCKETRY-036,2025-10-29,18:48:47,,31,-120.33,1004.65,25.5,0.012024-ASI-ROCKETRY-036,2025-10-29,18:48:47,32,-120.33,1004.65,25.5,0.01,06:53:18,IST,26.719899,84.304528,44.5,11,,,-0.03,,,,,,,-0.01
rocket,2025-10-30T01:23:49.493Z,2024-ASI-ROCKETRY-036,2025-10-29,18:48:53,,33,-120.33,1004.65,25.5,0.02024-ASI-ROCKETRY-036,2025-10-29,18:48:53,35,-119.94,1004.72,25.52,0.01,06:53:18,IST,26.719899,84.304528,44.5,11,,,-0.03,,,,,,,-0.01
rocket,2025-10-30T01:23:49.608Z,2024-ASI-ROCKETRY-036,2025-10-29,18:48:53,,36,-119.94,1004.72,25.52,0.02024-ASI-ROCKETRY-036,2025-10-29,18:48:53,37,-119.94,1004.72,25.52,0.01,06:53:18,IST,26.719899,84.304528,44.5,11,,,-0.06,,,,,,,-0.01
rocket,2025-10-30T01:23:49.632Z,2024-ASI-ROCKETRY-036,2025-10-29,18:49:00,,38,-119.94,1004.72,25.52,0.02024-ASI-ROCKETRY-036,2025-10-29,18:49:00,40,-120.13,1004.65,25.53,0.02,06:53:18,IST,26.719899,84.304528,44.5,11,,,-0.06,,,,,,,-0.01
rocket,2025-10-30T01:23:49.710Z,2024-ASI-ROCKETRY-036,2025-10-29,18:49:00,,41,-120.13,1004.65,25.53,0.02024-ASI-ROCKETRY-036,2025-10-29,18:49:00,42,-120.13,1004.65,25.53,0.02,06:53:18,IST,26.719899,84.304528,44.5,11,,,0.03,,,,,,,-0.01
rocket,2025-10-30T01:23:49.736Z,2024-ASI-ROCKETRY-036,2025-10-29,18:49:06,,43,-120.13,1004.65,25.53,0.022024-ASI-ROCKETRY-036,2025-10-29,18:49:06,45,-120.12,1004.73,25.54,0.01,06:53:38,IST,26.719898,84.304532,43.3,13,,,0.03,,,,,,,-0.01
rocket,2025-10-30T01:23:49.746Z,2024-ASI-ROCKETRY-036,2025-10-29,18:49:06,,46,-120.12,1004.73,25.54,0.012024-ASI-ROCKETRY-036,2025-10-29,18:49:06,47,-120.12,1004.73,25.54,0.01,06:53:38,IST,26.719898,84.304532,43.3,13,,,,,,,,,,-0.01
rocket,2025-10-30T01:23:49.857Z,2024-ASI-ROCKETRY-036,2025-10-29,18:49:13,,48,-120.12,1004.73,25.54,0.02024-ASI-ROCKETRY-036,2025-10-29,18:49:13,51,-119.92,1004.65,25.56,0.02,06:53:38,IST,26.719898,84.304532,43.3,13,,,-0.03,,,,,,,-0.01
rocket,2025-10-30T01:23:50.876Z,2024-ASI-ROCKETRY-036,2025-10-29,18:49:13,,52,-119.92,1004.65,25.56,0.02,06:53:38,IST,26.719898,84.304532,43.3,13,,,-0.03,,,,,-0.01,,342.98,,,,,,,
rocket,2025-10-30T01:23:52.170Z,2024-ASI-ROCKETRY-036,2025-10-29,18:49:20,,53,-119.92,1004.65,25.56,0.02,06:53:38,IST,26.719898,84.304532,43.3,13,,,-0.03,,,,,-0.01,,342.98,,,,,,,
rocket,2025-10-30T01:23:53.277Z,2024-ASI-ROCKETRY-036,2025-10-29,18:49:20,,54,-119.44,1004.72,25.58,0.01,06:53:38,IST,26.719898,84.304532,43.3,13,,,-0.03,,,,,-0.01,,342.98,,,,,,,
cansat,2025-10-30T01:24:37.532Z,2024-ASI-ROCKET-036,,,1,,,,,,,,,,,,,,,,,,,,,,,,,,,,
cansat,2025-10-30T01:24:37.599Z,2024-ASI-ROCKET-036,,2000-01-01,00:00:00,2,,,,,,,,,,,,,,,,,,,,,,,,,,,
cansat,2025-10-30T01:24:37.622Z,2024-ASI-ROCKET-036,,2000-01-01,00:00:00,3,-120.61,836.2,22.7,6.9,,,,,,,,,,,,,,,,,,,,,,,
cansat,2025-10-30T01:24:37.627Z,2024-ASI-ROCKET-036,,2000-01-01,00:00:00,4,-120.61,836.2,22.7,6.9,,,,,,,,,,,,,,,571.58,59.23,,,,,,,
cansat,2025-10-30T01:24:39.373Z,2024-ASI-ROCKET-036,,2000-01-01,00:00:00,5,-120.61,836.2,22.7,6.9,,,,,,,,6.76,,,,,,,571.58,59.23,,,,,,,
cansat,2025-10-30T01:24:40.627Z,2024-ASI-ROCKET-036,,2000-01-01,00:00:00,6,-120.61,836.2,22.7,6.9,,,,,,,,6.76,,,,,,,571.58,59.23,,,,,,,
cansat,2025-10-30T01:24:41.631Z,2024-ASI-ROCKET-036,,2000-01-01,00:00:00,7,-120.61,836.2,22.7,6.9,,,,,,,,6.76,,,,,,,571.58,59.23,,,,,,,
cansat,2025-10-30T01:24:42.876Z,2024-ASI-ROCKET-036,,2000-01-01,00:00:00,8,-121.08,1004.84,22.69,6.9,,,,,,-0.01,-0.01,6.76,,,,,,,571.58,59.23,,,,,,,
cansat,2025-10-30T01:24:44.003Z,2024-ASI-ROCKET-036,,2000-01-01,00:00:00,9,-121.08,1004.84,22.69,6.9,,,,,,-0.01,-0.01,6.76,,,,,,,571.89,59.34,,,,,,,
cansat,2025-10-30T01:24:45.720Z,2024-ASI-ROCKET-036,,2000-01-01,00:00:00,10,-121.08,1004.84,22.69,6.9,,,,,,-0.01,-0.01,0.07,,,,,,,571.89,59.34,,,,,,,
cansat,2025-10-30T01:24:46.718Z,2024-ASI-ROCKET-036,,2000-01-01,00:00:00,11,-121.08,1004.84,22.69,6.9,,,,,,-0.01,-0.01,0.07,,,,,,,571.89,59.34,,,,,,,
cansat,2025-10-30T01:24:48.150Z,2024-ASI-ROCKET-036,,2000-01-01,00:00:00,12,-121.08,1004.84,22.69,6.9,,,,,,-0.01,-0.01,0.07,,,,,,,571.89,59.34,,,,,,,
cansat,2025-10-30T01:24:49.096Z,2024-ASI-ROCKET-036,,2000-01-01,00:00:00,13,-122.11,1004.82,22.66,6.86,,,,,,-0.01,-0.01,0.07,,,,,,,571.89,59.34,,,-89.94,-32.51,-153.73,,
cansat,2025-10-30T01:24:50.015Z,2024-ASI-ROCKET-036,,2000-01-01,00:00:00,14,-122.11,1004.82,22.66,6.86,,,,,,-0.01,-0.01,0.07,,,,,,,572.21,59.45,,,-89.94,-32.51,-153.73,,
cansat,2025-10-30T01:24:52.034Z,2024-ASI-ROCKET-036,,2000-01-01,00:00:00,15,-122.11,1004.82,22.66,6.86,,,,,,-0.01,-0.01,0.16,,,,,,,572.21,59.45,,,-89.94,-32.51,-153.73,,
cansat,2025-10-30T01:24:53.241Z,2024-ASI-ROCKET-036,,2000-01-01,00:00:00,16,-122.11,1004.82,22.66,6.86,,,,,,-0.01,-0.01,0.16,,,,,,,572.21,59.45,,,-89.94,-32.51,-153.73,,
cansat,2025-10-30T01:24:54.240Z,2024-ASI-ROCKET-036,,2000-01-01,00:00:00,17,-122.11,1004.82,22.66,6.86,,,,,,-0.01,-0.01,0.16,,,,,,,572.21,59.45,,,-89.94,-32.51,-153.73,,
