Source,Timestamp,TEAM_ID,MISSION_TIME,PACKET_NO,ALTITUDE,PRESSURE,TEMP,BATTERY_VOLTAGE,GPS_TIME,GPS_LAT,GPS_LON,GPS_ALT,GPS_SATS,AX,AY,AZ,GXS,GYS,GZS,FLIGHTSOFTWARE_STATUS,SURFACE_TEMP,SMOKE,CARBON_DIOXIDE,AMMONIA,METHANE,CARBON_MONOXIDE,PITCH,ROLL,YAW
rocket,2025-10-29T22:00:03.388Z,2024-ASI-ROCKET-036,2000-01-01 00:00:00,33,-93.36,1001.63,25.17,6.92,,,,,,0.03,0.03,-0.06,-0.56,-0.22,0.22,,,,59.34,571.89,,,-152.21,-33.78,-72.19
rocket,2025-10-29T22:00:04.397Z,2024-ASI-ROCKET-036,2000-01-01 00:00:00,34,-93.36,1001.63,25.17,6.92,,,,,,0.03,0.03,-0.06,-0.56,-0.22,0.22,,,,59.23,571.58,,,-152.21,-33.78,-72.19
rocket,2025-10-29T22:00:06.412Z,2024-ASI-ROCKET-036,2000-01-01 00:00:00,35,-93.36,1001.63,25.17,6.92,,,,,,0.03,0.03,0.12,-0.56,-0.22,0.22,,,,59.23,571.58,,,-152.21,-33.78,-72.19
rocket,2025-10-29T22:00:07.429Z,2024-ASI-ROCKET-036,2000-01-01 00:00:00,36,-93.36,1001.63,25.17,6.92,,,,,,0.03,0.03,0.12,-0.56,-0.22,0.22,,,,59.23,571.58,,,-152.21,-33.78,-72.19
rocket,2025-10-29T22:00:08.646Z,2024-ASI-ROCKET-036,2000-01-01 00:00:00,37,-93.36,1001.63,25.17,6.92,,,,,,0.03,0.03,0.12,-0.56,-0.22,0.22,,,,59.23,571.58,,,-152.21,-33.78,-72.19
rocket,2025-10-29T22:00:09.734Z,2024-ASI-ROCKET-036,2000-01-01 00:00:00,38,-92.97,1001.57,25.18,6.92,,,,,,-0.02,-0.02,0.12,-0.56,-0.11,-0.67,,,,59.23,571.58,,,-151.45,-33.67,-72.29
rocket,2025-10-29T22:00:10.751Z,2024-ASI-ROCKET-036,2000-01-01 00:00:00,39,-92.97,1001.57,25.18,6.92,,,,,,-0.02,-0.02,0.12,-0.56,-0.11,-0.67,,,,59.12,571.27,,,-151.45,-33.67,-72.29
rocket,2025-10-29T22:00:12.767Z,2024-ASI-ROCKET-036,2000-01-01 00:00:00,40,-92.97,1001.57,25.18,6.92,,,,,,-0.02,-0.02,-0.06,-0.56,-0.11,-0.67,,,,59.12,571.27,,,-151.45,-33.67,-72.29
rocket,2025-10-29T22:00:13.785Z,2024-ASI-ROCKET-036,2000-01-01 00:00:00,41,-92.97,1001.57,25.18,6.92,,,,,,-0.02,-0.02,-0.06,-0.56,-0.11,-0.67,,,,59.12,571.27,,,-151.45,-33.67,-72.29
rocket,2025-10-29T22:00:15.001Z,2024-ASI-ROCKET-036,2000-01-01 00:00:00,42,-92.97,1001.57,25.18,6.92,,,,,,-0.02,-0.02,-0.06,-0.56,-0.11,-0.67,,,,59.12,571.27,,,-151.45,-33.67,-72.29
rocket,2025-10-29T22:00:16.062Z,2024-ASI-ROCKET-036,2000-01-01 00:00:00,43,-93.35,1001.58,25.19,6.92,,,,,,-0.02,-0.02,-0.06,-2.13,-1.23,-3.8,,,,59.12,571.27,,,-151.46,-33.67,-72.27
rocket,2025-10-29T22:00:17.078Z,2024-ASI-ROCKET-036,2000-01-01 00:00:00,44,-93.35,1001.58,25.19,6.92,,,,,,-0.02,-0.02,-0.06,-2.13,-1.23,-3.8,,,,59.34,571.89,,,-151.46,-33.67,-72.27
rocket,2025-10-29T22:00:19.095Z,2024-ASI-ROCKET-036,2000-01-01 00:00:00,45,-93.35,1001.58,25.19,6.92,,,,,,-0.02,-0.02,0.06,-2.13,-1.23,-3.8,,,,59.34,571.89,,,-151.46,-33.67,-72.27
rocket,2025-10-29T22:00:20.111Z,2024-ASI-ROCKET-036,2000-01-01 00:00:00,46,-93.35,1001.58,25.19,6.92,,,,,,-0.02,-0.02,0.06,-2.13,-1.23,-3.8,,,,59.34,571.89,,,-151.46,-33.67,-72.27
rocket,2025-10-29T22:00:21.328Z,2024-ASI-ROCKET-036,2000-01-01 00:00:00,47,-93.35,1001.58,25.19,6.92,,,,,,-0.02,-0.02,0.06,-2.13,-1.23,-3.8,,,,59.34,571.89,,,-151.46,-33.67,-72.27
rocket,2025-10-29T22:00:22.389Z,2024-ASI-ROCKET-036,2000-01-01 00:00:00,48,-93.44,1001.52,25.19,6.92,,,,,,-0.02,-0.02,0.06,0.67,0.56,,,,,59.34,571.89,,,-155.79,-34.17,-69.81
rocket,2025-10-29T22:00:23.408Z,2024-ASI-ROCKET-036,2000-01-01 00:00:00,49,-93.44,1001.52,25.19,6.92,,,,,,-0.02,-0.02,0.06,0.67,0.56,,,,,59.12,571.27,,,-155.79,-34.17,-69.81
rocket,2025-10-29T22:00:25.437Z,2024-ASI-ROCKET-036,2000-01-01 00:00:00,50,-93.44,1001.52,25.19,6.92,,,,,,-0.02,-0.02,0.01,0.67,0.56,,,,,59.12,571.27,,,-155.79,-34.17,-69.81
rocket,2025-10-29T22:00:26.461Z,2024-ASI-ROCKET-036,2000-01-01 00:00:00,51,-93.44,1001.52,25.19,6.92,,,,,,-0.02,-0.02,0.01,0.67,0.56,,,,,59.12,571.27,,,-155.79,-34.17,-69.81
rocket,2025-10-29T22:00:27.654Z,2024-ASI-ROCKET-036,2000-01-01 00:00:00,52,-93.44,1001.52,25.19,6.92,,,,,,-0.02,-0.02,0.01,0.67,0.56,,,,,59.12,571.27,,,-155.79,-34.17,-69.81
rocket,2025-10-29T22:00:28.754Z,2024-ASI-ROCKET-036,2000-01-01 00:00:00,53,-93.44,1001.54,25.21,6.92,,,,,,0.01,-0.04,0.01,0.67,0.56,,,,,59.12,571.27,,,-150.95,-33.99,-67.97
rocket,2025-10-29T22:00:29.775Z,2024-ASI-ROCKET-036,2000-01-01 00:00:00,54,-93.44,1001.54,25.21,6.92,,,,,,0.01,-0.04,0.01,0.67,0.56,,,,,59.12,571.27,,,-150.95,-33.99,-67.97
rocket,2025-10-29T22:00:31.785Z,2024-ASI-ROCKET-036,2000-01-01 00:00:00,55,-93.44,1001.54,25.21,6.92,,,,,,0.01,-0.04,,0.67,0.56,,,,,59.12,571.27,,,-150.95,-33.99,-67.97
rocket,2025-10-29T22:00:32.803Z,2024-ASI-ROCKET-036,2000-01-01 00:00:00,56,-93.44,1001.54,25.21,6.92,,,,,,0.01,-0.04,,0.67,0.56,,,,,59.12,571.27,,,-150.95,-33.99,-67.97
rocket,2025-10-29T22:00:34.022Z,2024-ASI-ROCKET-036,2000-01-01 00:00:00,57,-93.44,1001.54,25.21,6.92,,,,,,0.01,-0.04,,0.67,0.56,,,,,59.12,571.27,,,-150.95,-33.99,-67.97
rocket,2025-10-29T22:00:35.081Z,2024-ASI-ROCKET-036,2000-01-01 00:00:00,58,-92.68,1001.51,25.21,6.91,,,,,,0.01,-0.04,,-0.45,0.11,0.67,,,,59.12,571.27,,,-158.39,-39.03,-50.45
rocket,2025-10-29T22:00:36.098Z,2024-ASI-ROCKET-036,2000-01-01 00:00:00,59,-92.68,1001.51,25.21,6.91,,,,,,0.01,-0.04,,-0.45,0.11,0.67,,,,59.45,572.21,,,-158.39,-39.03,-50.45
rocket,2025-10-29T22:00:38.114Z,2024-ASI-ROCKET-036,2000-01-01 00:00:00,60,-92.68,1001.51,25.21,6.91,,,,,,0.01,-0.04,-0.12,-0.45,0.11,0.67,,,,59.45,572.21,,,-158.39,-39.03,-50.45
rocket,2025-10-29T22:00:39.132Z,2024-ASI-ROCKET-036,2000-01-01 00:00:00,61,-92.68,1001.51,25.21,6.91,,,,,,0.01,-0.04,-0.12,-0.45,0.11,0.67,,,,59.45,572.21,,,-158.39,-39.03,-50.45
rocket,2025-10-29T22:00:40.370Z,2024-ASI-ROCKET-036,2000-01-01 00:00:00,62,-92.68,1001.51,25.21,6.91,,,,,,0.01,-0.04,-0.12,-0.45,0.11,0.67,,,,59.45,572.21,,,-158.39,-39.03,-50.45
rocket,2025-10-29T22:00:41.411Z,2024-ASI-ROCKET-036,2000-01-01 00:00:00,63,-93.72,1001.5,25.21,6.91,,,,,,-0.12,0.09,-0.12,-0.45,-0.34,-0.56,,,,59.45,572.21,,,164.91,14,-8.33
rocket,2025-10-29T22:00:42.427Z,2024-ASI-ROCKET-036,2000-01-01 00:00:00,64,-93.72,1001.5,25.21,6.91,,,,,,-0.12,0.09,-0.12,-0.45,-0.34,-0.56,,,,59.34,571.89,,,164.91,14,-8.33
rocket,2025-10-29T22:00:44.442Z,2024-ASI-ROCKET-036,2000-01-01 00:00:00,65,-93.72,1001.5,25.21,6.91,,,,,,-0.12,0.09,0.16,-0.45,-0.34,-0.56,,,,59.34,571.89,,,164.91,14,-8.33
rocket,2025-10-29T22:00:45.458Z,2024-ASI-ROCKET-036,2000-01-01 00:00:00,66,-93.72,1001.5,25.21,6.91,,,,,,-0.12,0.09,0.16,-0.45,-0.34,-0.56,,,,59.34,571.89,,,164.91,14,-8.33
rocket,2025-10-29T22:00:46.675Z,2024-ASI-ROCKET-036,2000-01-01 00:00:00,67,-93.72,1001.5,25.21,6.91,,,,,,-0.12,0.09,0.16,-0.45,-0.34,-0.56,,,,59.34,571.89,,,164.91,14,-8.33
rocket,2025-10-29T22:00:47.811Z,2024-ASI-ROCKET-036,2000-01-01 00:00:00,68,-93.34,1001.55,25.21,6.91,,,,,,0.24,-0.09,0.16,-1.57,5.82,3.02,,,,59.34,571.89,,,-178.55,-18.92,-12.28
rocket,2025-10-29T22:00:48.843Z,2024-ASI-ROCKET-036,2000-01-01 00:00:00,69,-93.34,1001.55,25.21,6.91,,,,,,0.24,-0.09,0.16,-1.57,5.82,3.02,,,,59.23,571.58,,,-178.55,-18.92,-12.28
rocket,2025-10-29T22:00:50.825Z,2024-ASI-ROCKET-036,2000-01-01 00:00:00,70,-93.34,1001.55,25.21,6.91,,,,,,0.24,-0.09,-0.06,-1.57,5.82,3.02,,,,59.23,571.58,,,-178.55,-18.92,-12.28
rocket,2025-10-29T22:00:51.842Z,2024-ASI-ROCKET-036,2000-01-01 00:00:00,71,-93.34,1001.55,25.21,6.91,,,,,,0.24,-0.09,-0.06,-1.57,5.82,3.02,,,,59.23,571.58,,,-178.55,-18.92,-12.28
rocket,2025-10-29T22:00:53.060Z,2024-ASI-ROCKET-036,2000-01-01 00:00:00,72,-93.34,1001.55,25.21,6.91,,,,,,0.24,-0.09,-0.06,-1.57,5.82,3.02,,,,59.23,571.58,,,-178.55,-18.92,-12.28
rocket,2025-10-29T22:00:54.152Z,2024-ASI-ROCKET-036,2000-01-01 00:00:00,73,-93.25,1001.53,25.21,6.91,,,,,,0.03,0.18,-0.06,-1.57,5.82,3.02,,,,59.23,571.58,,,-169.25,-22.39,-29.2
rocket,2025-10-29T22:00:55.170Z,2024-ASI-ROCKET-036,2000-01-01 00:00:00,74,-93.25,1001.53,25.21,6.91,,,,,,0.03,0.18,-0.06,-1.57,5.82,3.02,,,,59.12,571.27,,,-169.25,-22.39,-29.2
rocket,2025-10-29T22:00:57.185Z,2024-ASI-ROCKET-036,2000-01-01 00:00:00,75,-93.25,1001.53,25.21,6.91,,,,,,0.03,0.18,-0.01,-1.57,5.82,3.02,,,,59.12,571.27,,,-169.25,-22.39,-29.2
rocket,2025-10-29T22:00:58.230Z,2024-ASI-ROCKET-036,2000-01-01 00:00:00,76,-93.25,1001.53,25.21,6.91,,,,,,0.03,0.18,-0.01,-1.57,5.82,3.02,,,,59.12,571.27,,,-169.25,-22.39,-29.2
rocket,2025-10-29T22:00:59.428Z,2024-ASI-ROCKET-036,2000-01-01 00:00:00,77,-93.25,1001.53,25.21,6.91,,,,,,0.03,0.18,-0.01,-1.57,5.82,3.02,,,,59.12,571.27,,,-169.25,-22.39,-29.2
rocket,2025-10-29T22:01:00.540Z,2024-ASI-ROCKET-036,2000-01-01 00:00:00,78,-93.06,1001.52,25.2,6.91,,,,,,0.04,0.04,-0.01,-1.57,5.82,3.02,,,,59.12,571.27,,,-171.05,-20.75,-28.11
rocket,2025-10-29T22:01:01.557Z,2024-ASI-ROCKET-036,2000-01-01 00:00:00,79,-93.06,1001.52,25.2,6.91,,,,,,0.04,0.04,-0.01,-1.57,5.82,3.02,,,,59.01,570.95,,,-171.05,-20.75,-28.11
rocket,2025-10-29T22:01:03.595Z,2024-ASI-ROCKET-036,2000-01-01 00:00:00,80,-93.06,1001.52,25.2,6.91,,,,,,0.04,0.04,-0.03,-1.57,5.82,3.02,,,,59.01,570.95,,,-171.05,-20.75,-28.11
rocket,2025-10-29T22:01:04.587Z,2024-ASI-ROCKET-036,2000-01-01 00:00:00,81,-93.06,1001.52,25.2,6.91,,,,,,0.04,0.04,-0.03,-1.57,5.82,3.02,,,,59.01,570.95,,,-171.05,-20.75,-28.11
rocket,2025-10-29T22:01:05.811Z,2024-ASI-ROCKET-036,2000-01-01 00:00:00,82,-93.06,1001.52,25.2,6.91,,,,,,0.04,0.04,-0.03,-1.57,5.82,3.02,,,,59.01,570.95,,,-171.05,-20.75,-28.11
rocket,2025-10-29T22:01:06.904Z,2024-ASI-ROCKET-036,2000-01-01 00:00:00,83,-93.63,1001.5,25.21,6.92,,,,,,0.02,0.01,-0.03,-0.11,-0.22,-0.34,,,,59.01,570.95,,,-170.4,-21.24,-28.27
rocket,2025-10-29T22:01:07.936Z,2024-ASI-ROCKET-036,2000-01-01 00:00:00,84,-93.63,1001.5,25.21,6.92,,,,,,0.02,0.01,-0.03,-0.11,-0.22,-0.34,,,,59.23,571.58,,,-170.4,-21.24,-28.27
rocket,2025-10-29T22:01:09.956Z,2024-ASI-ROCKET-036,2000-01-01 00:00:00,85,-93.63,1001.5,25.21,6.92,,,,,,0.02,0.01,0.09,-0.11,-0.22,-0.34,,,,59.23,571.58,,,-170.4,-21.24,-28.27
rocket,2025-10-29T22:01:10.952Z,2024-ASI-ROCKET-036,2000-01-01 00:00:00,86,-93.63,1001.5,25.21,6.92,,,,,,0.02,0.01,0.09,-0.11,-0.22,-0.34,,,,59.23,571.58,,,-170.4,-21.24,-28.27
rocket,2025-10-29T22:01:12.170Z,2024-ASI-ROCKET-036,2000-01-01 00:00:00,87,-93.63,1001.5,25.21,6.92,,,,,,0.02,0.01,0.09,-0.11,-0.22,-0.34,,,,59.23,571.58,,,-170.4,-21.24,-28.27
rocket,2025-10-29T22:01:13.243Z,2024-ASI-ROCKET-036,2000-01-01 00:00:00,88,-92.78,1001.54,25.21,6.92,,,,,,4.56,-0.09,0.09,0.22,0.34,,,,,59.23,571.58,,,179.01,2.29,-46.85
rocket,2025-10-29T22:01:14.268Z,2024-ASI-ROCKET-036,2000-01-01 00:00:00,89,-92.78,1001.54,25.21,6.92,,,,,,4.56,-0.09,0.09,0.22,0.34,,,,,59.34,571.89,,,179.01,2.29,-46.85
rocket,2025-10-29T22:01:16.283Z,2024-ASI-ROCKET-036,2000-01-01 00:00:00,90,-92.78,1001.54,25.21,6.92,,,,,,4.56,-0.09,-0.13,0.22,0.34,,,,,59.34,571.89,,,179.01,2.29,-46.85
rocket,2025-10-29T22:01:17.294Z,2024-ASI-ROCKET-036,2000-01-01 00:00:00,91,-92.78,1001.54,25.21,6.92,,,,,,4.56,-0.09,-0.13,0.22,0.34,,,,,59.34,571.89,,,179.01,2.29,-46.85
cansat,2025-10-29T21:56:07.946Z,2024-ASI-ROCKET-036,2000-01-01 00:00:00,70,-92.93,1001.4,25.03,6.92,,,,,,-0.03,,-0.06,-0.45,-0.11,0.11,,,,571.58,59.23,,,-154.49,-28.71,-99.26
cansat,2025-10-29T21:56:08.964Z,2024-ASI-ROCKET-036,2000-01-01 00:00:00,71,-92.93,1001.4,25.03,6.92,,,,,,-0.03,,-0.06,-0.45,-0.11,0.11,,,,571.58,59.23,,,-154.49,-28.71,-99.26
cansat,2025-10-29T21:56:10.179Z,2024-ASI-ROCKET-036,2000-01-01 00:00:00,72,-92.93,1001.4,25.03,6.92,,,,,,-0.03,,-0.06,-0.45,-0.11,0.11,,,,571.58,59.23,,,-154.49,-28.71,-99.26
cansat,2025-10-29T21:56:11.286Z,2024-ASI-ROCKET-036,2000-01-01 00:00:00,73,-92.83,1001.52,25.03,6.91,,,,,,-0.01,-0.02,-0.06,-0.45,-0.22,,,,,571.58,59.23,,,-154.35,-28.86,-99.65
cansat,2025-10-29T21:56:12.304Z,2024-ASI-ROCKET-036,2000-01-01 00:00:00,74,-92.83,1001.52,25.03,6.91,,,,,,-0.01,-0.02,-0.06,-0.45,-0.22,,,,,571.89,59.34,,,-154.35,-28.86,-99.65
cansat,2025-10-29T21:56:14.319Z,2024-ASI-ROCKET-036,2000-01-01 00:00:00,75,-92.83,1001.52,25.03,6.91,,,,,,-0.01,-0.02,-0.02,-0.45,-0.22,,,,,571.89,59.34,,,-154.35,-28.86,-99.65
cansat,2025-10-29T21:56:15.335Z,2024-ASI-ROCKET-036,2000-01-01 00:00:00,76,-92.83,1001.52,25.03,6.91,,,,,,-0.01,-0.02,-0.02,-0.45,-0.22,,,,,571.89,59.34,,,-154.35,-28.86,-99.65
cansat,2025-10-29T21:56:16.552Z,2024-ASI-ROCKET-036,2000-01-01 00:00:00,77,-92.83,1001.52,25.03,6.91,,,,,,-0.01,-0.02,-0.02,-0.45,-0.22,,,,,571.89,59.34,,,-154.35,-28.86,-99.65
cansat,2025-10-29T21:56:17.624Z,2024-ASI-ROCKET-036,2000-01-01 00:00:00,78,-93.21,1001.47,25.04,6.91,,,,,,0.03,-0.02,-0.02,-0.11,0.34,0.67,,,,571.89,59.34,,,-153.9,-29.22,-99.76
cansat,2025-10-29T21:56:18.640Z,2024-ASI-ROCKET-036,2000-01-01 00:00:00,79,-93.21,1001.47,25.04,6.91,,,,,,0.03,-0.02,-0.02,-0.11,0.34,0.67,,,,571.27,59.12,,,-153.9,-29.22,-99.76
cansat,2025-10-29T21:56:20.656Z,2024-ASI-ROCKET-036,2000-01-01 00:00:00,80,-93.21,1001.47,25.04,6.91,,,,,,0.03,-0.02,0.06,-0.11,0.34,0.67,,,,571.27,59.12,,,-153.9,-29.22,-99.76
cansat,2025-10-29T21:56:21.673Z,2024-ASI-ROCKET-036,2000-01-01 00:00:00,81,-93.21,1001.47,25.04,6.91,,,,,,0.03,-0.02,0.06,-0.11,0.34,0.67,,,,571.27,59.12,,,-153.9,-29.22,-99.76
cansat,2025-10-29T21:56:22.889Z,2024-ASI-ROCKET-036,2000-01-01 00:00:00,82,-93.21,1001.47,25.04,6.91,,,,,,0.03,-0.02,0.06,-0.11,0.34,0.67,,,,571.27,59.12,,,-153.9,-29.22,-99.76
cansat,2025-10-29T21:56:23.962Z,2024-ASI-ROCKET-036,2000-01-01 00:00:00,83,-93.77,1001.5,25.05,6.91,,,,,,-0.04,0.01,0.06,-0.78,-0.34,,,,,571.27,59.12,,,-153.97,-29.08,-99.68
cansat,2025-10-29T21:56:24.975Z,2024-ASI-ROCKET-036,2000-01-01 00:00:00,84,-93.77,1001.5,25.05,6.91,,,,,,-0.04,0.01,0.06,-0.78,-0.34,,,,,571.27,59.12,,,-153.97,-29.08,-99.68
cansat,2025-10-29T21:56:26.990Z,2024-ASI-ROCKET-036,2000-01-01 00:00:00,85,-93.77,1001.5,25.05,6.91,,,,,,-0.04,0.01,0.09,-0.78,-0.34,,,,,571.27,59.12,,,-153.97,-29.08,-99.68
cansat,2025-10-29T21:56:28.006Z,2024-ASI-ROCKET-036,2000-01-01 00:00:00,86,-93.77,1001.5,25.05,6.91,,,,,,-0.04,0.01,0.09,-0.78,-0.34,,,,,571.27,59.12,,,-153.97,-29.08,-99.68
cansat,2025-10-29T21:56:29.224Z,2024-ASI-ROCKET-036,2000-01-01 00:00:00,87,-93.77,1001.5,25.05,6.91,,,,,,-0.04,0.01,0.09,-0.78,-0.34,,,,,571.27,59.12,,,-153.97,-29.08,-99.68
cansat,2025-10-29T21:56:30.283Z,2024-ASI-ROCKET-036,2000-01-01 00:00:00,88,-93.39,1001.53,25.06,6.91,,,,,,-0.04,0.01,0.09,,-0.34,,,,,571.27,59.12,,,-154,-29.07,-99.69
cansat,2025-10-29T21:56:31.299Z,2024-ASI-ROCKET-036,2000-01-01 00:00:00,89,-93.39,1001.53,25.06,6.91,,,,,,-0.04,0.01,0.09,,-0.34,,,,,571.89,59.34,,,-154,-29.07,-99.69
cansat,2025-10-29T21:56:33.320Z,2024-ASI-ROCKET-036,2000-01-01 00:00:00,90,-93.39,1001.53,25.06,6.91,,,,,,-0.04,0.01,-0.06,,-0.34,,,,,571.89,59.34,,,-154,-29.07,-99.69
cansat,2025-10-29T21:56:34.331Z,2024-ASI-ROCKET-036,2000-01-01 00:00:00,91,-93.39,1001.53,25.06,6.91,,,,,,-0.04,0.01,-0.06,,-0.34,,,,,571.89,59.34,,,-154,-29.07,-99.69
cansat,2025-10-29T21:56:35.548Z,2024-ASI-ROCKET-036,2000-01-01 00:00:00,92,-93.39,1001.53,25.06,6.91,,,,,,-0.04,0.01,-0.06,,-0.34,,,,,571.89,59.34,,,-154,-29.07,-99.69
cansat,2025-10-29T21:56:36.629Z,2024-ASI-ROCKET-036,2000-01-01 00:00:00,93,-93.01,1001.49,25.08,6.91,,,,,,-0.07,-0.05,-0.06,-0.22,-0.56,0.67,,,,571.89,59.34,,,-153.69,-29.27,-99.67
cansat,2025-10-29T21:56:37.646Z,2024-ASI-ROCKET-036,2000-01-01 00:00:00,94,-93.01,1001.49,25.08,6.91,,,,,,-0.07,-0.05,-0.06,-0.22,-0.56,0.67,,,,571.58,59.23,,,-153.69,-29.27,-99.67
cansat,2025-10-29T21:56:39.662Z,2024-ASI-ROCKET-036,2000-01-01 00:00:00,95,-93.01,1001.49,25.08,6.91,,,,,,-0.07,-0.05,-0.06,-0.22,-0.56,0.67,,,,571.58,59.23,,,-153.69,-29.27,-99.67
cansat,2025-10-29T21:56:40.678Z,2024-ASI-ROCKET-036,2000-01-01 00:00:00,96,-93.01,1001.49,25.08,6.91,,,,,,-0.07,-0.05,-0.06,-0.22,-0.56,0.67,,,,571.58,59.23,,,-153.69,-29.27,-99.67
cansat,2025-10-29T21:56:41.895Z,2024-ASI-ROCKET-036,2000-01-01 00:00:00,97,-93.01,1001.49,25.08,6.91,,,,,,-0.07,-0.05,-0.06,-0.22,-0.56,0.67,,,,571.58,59.23,,,-153.69,-29.27,-99.67
cansat,2025-10-29T21:56:42.998Z,2024-ASI-ROCKET-036,2000-01-01 00:00:00,98,-93.86,1001.54,25.08,6.91,,,,,,-0.05,-0.01,-0.06,-0.45,-0.34,0.11,,,,571.58,59.23,,,-153.87,-29.06,-99.64
cansat,2025-10-29T21:56:44.014Z,2024-ASI-ROCKET-036,2000-01-01 00:00:00,99,-93.86,1001.54,25.08,6.91,,,,,,-0.05,-0.01,-0.06,-0.45,-0.34,0.11,,,,571.58,59.23,,,-153.87,-29.06,-99.64
cansat,2025-10-29T21:56:46.031Z,2024-ASI-ROCKET-036,2000-01-01 00:00:00,100,-93.86,1001.54,25.08,6.91,,,,,,-0.05,-0.01,0.13,-0.45,-0.34,0.11,,,,571.58,59.23,,,-153.87,-29.06,-99.64
cansat,2025-10-29T21:56:47.046Z,2024-ASI-ROCKET-036,2000-01-01 00:00:00,101,-93.86,1001.54,25.08,6.91,,,,,,-0.05,-0.01,0.13,-0.45,-0.34,0.11,,,,571.58,59.23,,,-153.87,-29.06,-99.64
cansat,2025-10-29T21:56:48.263Z,2024-ASI-ROCKET-036,2000-01-01 00:00:00,102,-93.86,1001.54,25.08,6.91,,,,,,-0.05,-0.01,0.13,-0.45,-0.34,0.11,,,,571.58,59.23,,,-153.87,-29.06,-99.64
cansat,2025-10-29T21:56:49.341Z,2024-ASI-ROCKET-036,2000-01-01 00:00:00,103,-93.1,1001.48,25.1,6.91,,,,,,-0.02,0.06,0.13,-0.45,-0.34,,,,,571.58,59.23,,,-154.06,-29.18,-99.62
cansat,2025-10-29T21:56:50.359Z,2024-ASI-ROCKET-036,2000-01-01 00:00:00,104,-93.1,1001.48,25.1,6.91,,,,,,-0.02,0.06,0.13,-0.45,-0.34,,,,,572.21,59.45,,,-154.06,-29.18,-99.62
cansat,2025-10-29T21:56:52.374Z,2024-ASI-ROCKET-036,2000-01-01 00:00:00,105,-93.1,1001.48,25.1,6.91,,,,,,-0.02,0.06,-0.12,-0.45,-0.34,,,,,572.21,59.45,,,-154.06,-29.18,-99.62
cansat,2025-10-29T21:56:53.390Z,2024-ASI-ROCKET-036,2000-01-01 00:00:00,106,-93.1,1001.48,25.1,6.91,,,,,,-0.02,0.06,-0.12,-0.45,-0.34,,,,,572.21,59.45,,,-154.06,-29.18,-99.62
cansat,2025-10-29T21:56:54.608Z,2024-ASI-ROCKET-036,2000-01-01 00:00:00,107,-93.1,1001.48,25.1,6.91,,,,,,-0.02,0.06,-0.12,-0.45,-0.34,,,,,572.21,59.45,,,-154.06,-29.18,-99.62
cansat,2025-10-29T21:56:55.669Z,2024-ASI-ROCKET-036,2000-01-01 00:00:00,108,-93.19,1001.52,25.11,6.91,,,,,,-0.02,0.06,-0.12,0.11,-0.78,0.34,,,,572.21,59.45,,,-154.06,-29.15,-99.63
cansat,2025-10-29T21:56:56.685Z,2024-ASI-ROCKET-036,2000-01-01 00:00:00,109,-93.19,1001.52,25.11,6.91,,,,,,-0.02,0.06,-0.12,0.11,-0.78,0.34,,,,571.89,59.34,,,-154.06,-29.15,-99.63
cansat,2025-10-29T21:56:58.701Z,2024-ASI-ROCKET-036,2000-01-01 00:00:00,110,-93.19,1001.52,25.11,6.91,,,,,,-0.02,0.06,0.01,0.11,-0.78,0.34,,,,571.89,59.34,,,-154.06,-29.15,-99.63
cansat,2025-10-29T21:56:59.717Z,2024-ASI-ROCKET-036,2000-01-01 00:00:00,111,-93.19,1001.52,25.11,6.91,,,,,,-0.02,0.06,0.01,0.11,-0.78,0.34,,,,571.89,59.34,,,-154.06,-29.15,-99.63
cansat,2025-10-29T21:57:00.934Z,2024-ASI-ROCKET-036,2000-01-01 00:00:00,112,-93.19,1001.52,25.11,6.91,,,,,,-0.02,0.06,0.01,0.11,-0.78,0.34,,,,571.89,59.34,,,-154.06,-29.15,-99.63
cansat,2025-10-29T21:57:02.093Z,2024-ASI-ROCKET-036,2000-01-01 00:00:00,113,-92.7,1001.49,25.14,6.91,,,,,,0.03,0.04,0.01,0.22,-0.67,,,,,571.89,59.34,,,-152.54,-28.99,-99.32
cansat,2025-10-29T21:57:03.109Z,2024-ASI-ROCKET-036,2000-01-01 00:00:00,114,-92.7,1001.49,25.14,6.91,,,,,,0.03,0.04,0.01,0.22,-0.67,,,,,572.21,59.45,,,-152.54,-28.99,-99.32
cansat,2025-10-29T21:57:05.126Z,2024-ASI-ROCKET-036,2000-01-01 00:00:00,115,-92.7,1001.49,25.14,6.91,,,,,,0.03,0.04,-0.08,0.22,-0.67,,,,,572.21,59.45,,,-152.54,-28.99,-99.32
cansat,2025-10-29T21:57:06.141Z,2024-ASI-ROCKET-036,2000-01-01 00:00:00,116,-92.7,1001.49,25.14,6.91,,,,,,0.03,0.04,-0.08,0.22,-0.67,,,,,572.21,59.45,,,-152.54,-28.99,-99.32
cansat,2025-10-29T21:57:07.358Z,2024-ASI-ROCKET-036,2000-01-01 00:00:00,117,-92.7,1001.49,25.14,6.91,,,,,,0.03,0.04,-0.08,0.22,-0.67,,,,,572.21,59.45,,,-152.54,-28.99,-99.32
cansat,2025-10-29T21:57:08.436Z,2024-ASI-ROCKET-036,2000-01-01 00:00:00,118,-93.55,1001.47,25.16,6.91,,,,,,-0.03,0.09,-0.08,0.78,1.79,-0.67,,,,572.21,59.45,,,-153.15,-29.74,-99.67
cansat,2025-10-29T21:57:09.453Z,2024-ASI-ROCKET-036,2000-01-01 00:00:00,119,-93.55,1001.47,25.16,6.91,,,,,,-0.03,0.09,-0.08,0.78,1.79,-0.67,,,,571.58,59.23,,,-153.15,-29.74,-99.67
cansat,2025-10-29T21:57:11.470Z,2024-ASI-ROCKET-036,2000-01-01 00:00:00,120,-93.55,1001.47,25.16,6.91,,,,,,-0.03,0.09,0.13,0.78,1.79,-0.67,,,,571.58,59.23,,,-153.15,-29.74,-99.67
cansat,2025-10-29T21:57:12.485Z,2024-ASI-ROCKET-036,2000-01-01 00:00:00,121,-93.55,1001.47,25.16,6.91,,,,,,-0.03,0.09,0.13,0.78,1.79,-0.67,,,,571.58,59.23,,,-153.15,-29.74,-99.67
cansat,2025-10-29T21:57:13.702Z,2024-ASI-ROCKET-036,2000-01-01 00:00:00,122,-93.55,1001.47,25.16,6.91,,,,,,-0.03,0.09,0.13,0.78,1.79,-0.67,,,,571.58,59.23,,,-153.15,-29.74,-99.67
cansat,2025-10-29T21:57:14.762Z,2024-ASI-ROCKET-036,2000-01-01 00:00:00,123,-93.45,1001.51,25.17,6.91,,,,,,-0.03,0.09,0.13,0.34,0.22,0.11,,,,571.58,59.23,,,-153.05,-29.78,-99.71
cansat,2025-10-29T21:57:15.778Z,2024-ASI-ROCKET-036,2000-01-01 00:00:00,124,-93.45,1001.51,25.17,6.91,,,,,,-0.03,0.09,0.13,0.34,0.22,0.11,,,,571.58,59.23,,,-153.05,-29.78,-99.71
cansat,2025-10-29T21:57:17.794Z,2024-ASI-ROCKET-036,2000-01-01 00:00:00,125,-93.45,1001.51,25.17,6.91,,,,,,-0.03,0.09,-0.02,0.34,0.22,0.11,,,,571.58,59.23,,,-153.05,-29.78,-99.71
cansat,2025-10-29T21:57:18.810Z,2024-ASI-ROCKET-036,2000-01-01 00:00:00,126,-93.45,1001.51,25.17,6.91,,,,,,-0.03,0.09,-0.02,0.34,0.22,0.11,,,,571.58,59.23,,,-153.05,-29.78,-99.71
cansat,2025-10-29T21:57:20.027Z,2024-ASI-ROCKET-036,2000-01-01 00:00:00,127,-93.45,1001.51,25.17,6.91,,,,,,-0.03,0.09,-0.02,0.34,0.22,0.11,,,,571.58,59.23,,,-153.05,-29.78,-99.71
cansat,2025-10-29T21:57:21.087Z,2024-ASI-ROCKET-036,2000-01-01 00:00:00,128,-93.54,1001.49,25.19,6.91,,,,,,-0.03,0.09,-0.02,2.24,1.01,-2.01,,,,571.58,59.23,,,-153.3,-29.41,-98.6
cansat,2025-10-29T21:57:22.103Z,2024-ASI-ROCKET-036,2000-01-01 00:00:00,129,-93.54,1001.49,25.19,6.91,,,,,,-0.03,0.09,-0.02,2.24,1.01,-2.01,,,,571.27,59.12,,,-153.3,-29.41,-98.6
cansat,2025-10-29T21:57:24.119Z,2024-ASI-ROCKET-036,2000-01-01 00:00:00,130,-93.54,1001.49,25.19,6.91,,,,,,-0.03,0.09,0.01,2.24,1.01,-2.01,,,,571.27,59.12,,,-153.3,-29.41,-98.6
cansat,2025-10-29T21:57:25.135Z,2024-ASI-ROCKET-036,2000-01-01 00:00:00,131,-93.54,1001.49,25.19,6.91,,,,,,-0.03,0.09,0.01,2.24,1.01,-2.01,,,,571.27,59.12,,,-153.3,-29.41,-98.6
cansat,2025-10-29T21:57:26.352Z,2024-ASI-ROCKET-036,2000-01-01 00:00:00,132,-93.54,1001.49,25.19,6.91,,,,,,-0.03,0.09,0.01,2.24,1.01,-2.01,,,,571.27,59.12,,,-153.3,-29.41,-98.6
cansat,2025-10-29T21:57:27.415Z,2024-ASI-ROCKET-036,2000-01-01 00:00:00,133,-92.59,1001.52,25.19,6.91,,,,,,0.66,-0.38,0.01,2.24,1.01,-2.01,,,,571.27,59.12,,,-132.46,-9.24,139.86
cansat,2025-10-29T21:57:28.431Z,2024-ASI-ROCKET-036,2000-01-01 00:00:00,134,-92.59,1001.52,25.19,6.91,,,,,,0.66,-0.38,0.01,2.24,1.01,-2.01,,,,571.58,59.23,,,-132.46,-9.24,139.86
cansat,2025-10-29T21:57:30.447Z,2024-ASI-ROCKET-036,2000-01-01 00:00:00,135,-92.59,1001.52,25.19,6.91,,,,,,0.66,-0.38,-0.15,2.24,1.01,-2.01,,,,571.58,59.23,,,-132.46,-9.24,139.86
cansat,2025-10-29T21:57:31.463Z,2024-ASI-ROCKET-036,2000-01-01 00:00:00,136,-92.59,1001.52,25.19,6.91,,,,,,0.66,-0.38,-0.15,2.24,1.01,-2.01,,,,571.58,59.23,,,-132.46,-9.24,139.86
cansat,2025-10-29T21:57:32.680Z,2024-ASI-ROCKET-036,2000-01-01 00:00:00,137,-92.59,1001.52,25.19,6.91,,,,,,0.66,-0.38,-0.15,2.24,1.01,-2.01,,,,571.58,59.23,,,-132.46,-9.24,139.86
cansat,2025-10-29T21:57:33.744Z,2024-ASI-ROCKET-036,2000-01-01 00:00:00,138,-92.31,1001.5,25.19,6.91,,,,,,-0.13,-0.07,-0.15,-0.45,-16.9,-40.4,,,,571.58,59.23,,,-163.19,-21.08,26.1
cansat,2025-10-29T21:57:34.762Z,2024-ASI-ROCKET-036,2000-01-01 00:00:00,139,-92.31,1001.5,25.19,6.91,,,,,,-0.13,-0.07,-0.15,-0.45,-16.9,-40.4,,,,571.89,59.34,,,-163.19,-21.08,26.1
cansat,2025-10-29T21:59:26.411Z,2024-ASI-ROCKET-036,,1,,,,,,,,,,,,,,,,,,,,,,,,,
cansat,2025-10-29T21:59:26.435Z,2024-ASI-ROCKET-036,2000-01-01 00:00:00,2,,,,,,,,,,,,,,,,,,,,,,,,,
cansat,2025-10-29T21:59:26.464Z,2024-ASI-ROCKET-036,2000-01-01 00:00:00,3,-93.09,836.2,25.11,6.92,,,,,,,,,,,,,,,,,,,,,
cansat,2025-10-29T21:59:26.498Z,2024-ASI-ROCKET-036,2000-01-01 00:00:00,4,-93.09,836.2,25.11,6.92,,,,,,,,,,,,,,,571.27,59.12,,,,,
cansat,2025-10-29T21:59:28.359Z,2024-ASI-ROCKET-036,2000-01-01 00:00:00,5,-93.09,836.2,25.11,6.92,,,,,,,,5.22,,,,,,,571.27,59.12,,,,,
cansat,2025-10-29T21:59:29.376Z,2024-ASI-ROCKET-036,2000-01-01 00:00:00,6,-93.09,836.2,25.11,6.92,,,,,,,,5.22,,,,,,,571.27,59.12,,,,,
cansat,2025-10-29T21:59:30.590Z,2024-ASI-ROCKET-036,2000-01-01 00:00:00,7,-93.09,836.2,25.11,6.92,,,,,,,,5.22,,,,,,,571.27,59.12,,,,,
cansat,2025-10-29T21:59:31.648Z,2024-ASI-ROCKET-036,2000-01-01 00:00:00,8,-93,1001.5,25.11,6.92,,,,,,0.01,0.02,5.22,,,,,,,571.27,59.12,,,,,
cansat,2025-10-29T21:59:32.667Z,2024-ASI-ROCKET-036,2000-01-01 00:00:00,9,-93,1001.5,25.11,6.92,,,,,,0.01,0.02,5.22,,,,,,,571.89,59.34,,,,,
cansat,2025-10-29T21:59:34.679Z,2024-ASI-ROCKET-036,2000-01-01 00:00:00,10,-93,1001.5,25.11,6.92,,,,,,0.01,0.02,-0.02,,,,,,,571.89,59.34,,,,,
cansat,2025-10-29T21:59:35.693Z,2024-ASI-ROCKET-036,2000-01-01 00:00:00,11,-93,1001.5,25.11,6.92,,,,,,0.01,0.02,-0.02,,,,,,,571.89,59.34,,,,,
cansat,2025-10-29T21:59:36.909Z,2024-ASI-ROCKET-036,2000-01-01 00:00:00,12,-93,1001.5,25.11,6.92,,,,,,0.01,0.02,-0.02,,,,,,,571.89,59.34,,,,,
cansat,2025-10-29T21:59:37.948Z,2024-ASI-ROCKET-036,2000-01-01 00:00:00,13,-93.09,1001.48,25.13,6.92,,,,,,0.01,0.02,-0.02,,,,,,,571.89,59.34,,,-154,-33.61,-71.78
cansat,2025-10-29T21:59:38.964Z,2024-ASI-ROCKET-036,2000-01-01 00:00:00,14,-93.09,1001.48,25.13,6.92,,,,,,0.01,0.02,-0.02,,,,,,,571.89,59.34,,,-154,-33.61,-71.78
cansat,2025-10-29T21:59:40.980Z,2024-ASI-ROCKET-036,2000-01-01 00:00:00,15,-93.09,1001.48,25.13,6.92,,,,,,0.01,0.02,0.01,,,,,,,571.89,59.34,,,-154,-33.61,-71.78
cansat,2025-10-29T21:59:41.996Z,2024-ASI-ROCKET-036,2000-01-01 00:00:00,16,-93.09,1001.48,25.13,6.92,,,,,,0.01,0.02,0.01,,,,,,,571.89,59.34,,,-154,-33.61,-71.78
cansat,2025-10-29T21:59:43.213Z,2024-ASI-ROCKET-036,2000-01-01 00:00:00,17,-93.09,1001.48,25.13,6.92,,,,,,0.01,0.02,0.01,,,,,,,571.89,59.34,,,-154,-33.61,-71.78
cansat,2025-10-29T21:59:44.270Z,2024-ASI-ROCKET-036,2000-01-01 00:00:00,18,-93.27,1001.59,25.13,6.92,,,,,,0.01,0.02,0.01,,,,,,,571.89,59.34,,,-153.32,-33.65,-71.82
cansat,2025-10-29T21:59:45.287Z,2024-ASI-ROCKET-036,2000-01-01 00:00:00,19,-93.27,1001.59,25.13,6.92,,,,,,0.01,0.02,0.01,,,,,,,572.21,59.45,,,-153.32,-33.65,-71.82
cansat,2025-10-29T21:59:47.301Z,2024-ASI-ROCKET-036,2000-01-01 00:00:00,20,-93.27,1001.59,25.13,6.92,,,,,,0.01,0.02,0.03,,,,,,,572.21,59.45,,,-153.32,-33.65,-71.82
cansat,2025-10-29T21:59:48.317Z,2024-ASI-ROCKET-036,2000-01-01 00:00:00,21,-93.27,1001.59,25.13,6.92,,,,,,0.01,0.02,0.03,,,,,,,572.21,59.45,,,-153.32,-33.65,-71.82
cansat,2025-10-29T21:59:49.534Z,2024-ASI-ROCKET-036,2000-01-01 00:00:00,22,-93.27,1001.59,25.13,6.92,,,,,,0.01,0.02,0.03,,,,,,,572.21,59.45,,,-153.32,-33.65,-71.82
cansat,2025-10-29T21:59:50.604Z,2024-ASI-ROCKET-036,2000-01-01 00:00:00,23,-92.98,1001.65,25.15,6.91,,,,,,-0.01,0.03,0.03,,,,,,,572.21,59.45,,,-152.39,-33.7,-72.15
cansat,2025-10-29T21:59:51.621Z,2024-ASI-ROCKET-036,2000-01-01 00:00:00,24,-92.98,1001.65,25.15,6.91,,,,,,-0.01,0.03,0.03,,,,,,,571.89,59.34,,,-152.39,-33.7,-72.15
cansat,2025-10-29T21:59:53.638Z,2024-ASI-ROCKET-036,2000-01-01 00:00:00,25,-92.98,1001.65,25.15,6.91,,,,,,-0.01,0.03,-0.05,,,,,,,571.89,59.34,,,-152.39,-33.7,-72.15
cansat,2025-10-29T21:59:54.653Z,2024-ASI-ROCKET-036,2000-01-01 00:00:00,26,-92.98,1001.65,25.15,6.91,,,,,,-0.01,0.03,-0.05,,,,,,,571.89,59.34,,,-152.39,-33.7,-72.15
cansat,2025-10-29T21:59:55.870Z,2024-ASI-ROCKET-036,2000-01-01 00:00:00,27,-92.98,1001.65,25.15,6.91,,,,,,-0.01,0.03,-0.05,,,,,,,571.89,59.34,,,-152.39,-33.7,-72.15
cansat,2025-10-29T21:59:57.054Z,2024-ASI-ROCKET-036,2000-01-01 00:00:00,28,-92.61,1001.54,25.14,6.91,,,,,,,,-0.05,-0.22,-0.34,,,,,571.89,59.34,,,-152.18,-33.78,-72.2
cansat,2025-10-29T21:59:58.071Z,2024-ASI-ROCKET-036,2000-01-01 00:00:00,29,-92.61,1001.54,25.14,6.91,,,,,,,,-0.05,-0.22,-0.34,,,,,571.89,59.34,,,-152.18,-33.78,-72.2
cansat,2025-10-29T22:00:24.597Z,2024-ASI-ROCKETRY-036,2025-10-29 15:25:48,1,-92.85,1001.5,25.21,0.01,03:30:19 IST,,,,,,,-0.38,,,,,,,,339.94,-0.01,,-4.3,-31.17,-33.42
cansat,2025-10-29T22:00:24.620Z,2024-ASI-ROCKETRY-036,2025-10-29 15:25:48,2,-92.85,1001.5,25.21,0.01,03:30:19 IST,,,,,,,-0.38,,,,,,,,339.94,-0.01,,-4.3,-31.17,-33.42
cansat,2025-10-29T22:00:24.641Z,2024-ASI-ROCKETRY-036,2025-10-29 15:25:51,3,-92.85,1001.5,25.21,0.01,03:30:19 IST,,,,,,,-0.38,,,,,,,,339.94,-0.01,,-4.3,-31.17,-33.42
cansat,2025-10-29T22:00:24.716Z,2024-ASI-ROCKETRY-036,2025-10-29 15:25:51,4,-93.23,1001.53,25.21,0.02,03:30:19 IST,,,,,,,-0.38,,,,,,,,339.94,-0.01,,-4.3,-31.17,-33.42
cansat,2025-10-29T22:00:25.841Z,2024-ASI-ROCKETRY-036,2025-10-29 15:25:51,5,-93.23,1001.53,25.21,0.02,03:30:19 IST,,,,,,,-0.38,,,,,,,,339.94,-0.01,,-4.3,-31.17,-33.42
cansat,2025-10-29T22:00:27.902Z,2024-ASI-ROCKETRY-036,2025-10-29 15:25:51,6,-93.23,1001.53,25.21,0.02,03:30:19 IST,,,,,,,0.3,,,,,,,,339.94,-0.01,,-4.3,-31.17,-33.42
cansat,2025-10-29T22:00:28.926Z,2024-ASI-ROCKETRY-036,2025-10-29 15:25:51,7,-93.23,1001.53,25.21,0.02,03:30:19 IST,,,,,,,0.3,,,,,,,,339.94,-0.01,,-4.3,-31.17,-33.42
cansat,2025-10-29T22:00:30.222Z,2024-ASI-ROCKETRY-036,2025-10-29 15:25:57,8,-93.23,1001.53,25.21,0.02,03:30:19 IST,,,,,,,0.3,,,,,,,,339.94,-0.01,,-4.3,-31.17,-33.42
cansat,2025-10-29T22:00:31.393Z,2024-ASI-ROCKETRY-036,2025-10-29 15:25:57,9,-93.23,1001.48,25.22,0.01,03:30:19 IST,,,,,,,0.3,,,,,,,,339.94,-0.01,,-4.3,-31.19,-33.41
cansat,2025-10-29T22:00:32.503Z,2024-ASI-ROCKETRY-036,2025-10-29 15:25:57,10,-93.23,1001.48,25.22,0.01,03:30:19 IST,,,,,,,0.3,,,,,,,,339.94,-0.01,,-4.3,-31.19,-33.41
cansat,2025-10-29T22:00:34.583Z,2024-ASI-ROCKETRY-036,2025-10-29 15:25:57,11,-93.23,1001.48,25.22,0.01,03:30:19 IST,,,,,,,,,,,,,,,339.94,-0.01,,-4.3,-31.19,-33.41
cansat,2025-10-29T22:00:35.595Z,2024-ASI-ROCKETRY-036,2025-10-29 15:25:57,12,-93.23,1001.48,25.22,0.01,03:30:19 IST,,,,,,,,,,,,,,,339.94,-0.01,,-4.3,-31.19,-33.41
cansat,2025-10-29T22:00:36.918Z,2024-ASI-ROCKETRY-036,2025-10-29 15:26:04,13,-93.23,1001.48,25.22,0.01,03:30:19 IST,,,,,,,,,,,,,,,339.94,-0.01,,-4.3,-31.19,-33.41
cansat,2025-10-29T22:00:38.062Z,2024-ASI-ROCKETRY-036,2025-10-29 15:26:04,14,-92.56,1001.6,25.22,0.01,03:30:19 IST,,,,,,,,,,,,,,,339.94,-0.01,,-4.32,-31.18,-33.4
cansat,2025-10-29T22:00:39.149Z,2024-ASI-ROCKETRY-036,2025-10-29 15:26:04,15,-92.56,1001.6,25.22,0.01,03:30:19 IST,,,,,,,,,,,,,,,339.51,-0.01,,-4.32,-31.18,-33.4
cansat,2025-10-29T22:00:41.243Z,2024-ASI-ROCKETRY-036,2025-10-29 15:26:04,16,-92.56,1001.6,25.22,0.01,03:30:19 IST,,,,,,,-0.1,,,,,,,,339.51,-0.01,,-4.32,-31.18,-33.4
cansat,2025-10-29T22:00:42.278Z,2024-ASI-ROCKETRY-036,2025-10-29 15:26:04,17,-92.56,1001.6,25.22,0.01,03:30:19 IST,,,,,,,-0.1,,,,,,,,339.51,-0.01,,-4.32,-31.18,-33.4
cansat,2025-10-29T22:00:43.560Z,2024-ASI-ROCKETRY-036,2025-10-29 15:26:11,18,-92.56,1001.6,25.22,0.01,03:30:19 IST,,,,,,,-0.1,,,,,,,,339.51,-0.01,,-4.32,-31.18,-33.4
cansat,2025-10-29T22:00:44.712Z,2024-ASI-ROCKETRY-036,2025-10-29 15:26:11,19,-93.41,1001.48,25.24,0.01,03:30:19 IST,,,,,,0.01,-0.1,,,,,,,,339.51,-0.01,,-4.33,-31.2,-33.38
cansat,2025-10-29T22:00:45.806Z,2024-ASI-ROCKETRY-036,2025-10-29 15:26:11,20,-93.41,1001.48,25.24,0.01,03:30:19 IST,,,,,,0.01,-0.1,,,,,,,,339.51,-0.01,,-4.33,-31.2,-33.38
cansat,2025-10-29T22:00:47.908Z,2024-ASI-ROCKETRY-036,2025-10-29 15:26:11,21,-93.41,1001.48,25.24,0.01,03:30:19 IST,,,,,,0.01,0.13,,,,,,,,339.51,-0.01,,-4.33,-31.2,-33.38
cansat,2025-10-29T22:00:48.922Z,2024-ASI-ROCKETRY-036,2025-10-29 15:26:11,22,-93.41,1001.48,25.24,0.01,03:30:19 IST,,,,,,0.01,0.13,,,,,,,,339.51,-0.01,,-4.33,-31.2,-33.38
cansat,2025-10-29T22:00:50.210Z,2024-ASI-ROCKETRY-036,2025-10-29 15:26:17,23,-93.41,1001.48,25.24,0.01,03:30:19 IST,,,,,,0.01,0.13,,,,,,,,339.51,-0.01,,-4.33,-31.2,-33.38
cansat,2025-10-29T22:00:51.355Z,2024-ASI-ROCKETRY-036,2025-10-29 15:26:17,24,-92.93,1001.46,25.24,0.01,03:30:19 IST,,,,,,0.01,0.13,-0.11,-0.11,-0.11,,,,,339.51,-0.01,,-4.31,-31.2,-33.38
cansat,2025-10-29T22:00:52.450Z,2024-ASI-ROCKETRY-036,2025-10-29 15:26:17,25,-92.93,1001.46,25.24,0.01,03:30:19 IST,,,,,,0.01,0.13,-0.11,-0.11,-0.11,,,,,339.94,-0.01,,-4.31,-31.2,-33.38
cansat,2025-10-29T22:00:54.545Z,2024-ASI-ROCKETRY-036,2025-10-29 15:26:17,26,-92.93,1001.46,25.24,0.01,03:30:19 IST,,,,,,0.01,-0.07,-0.11,-0.11,-0.11,,,,,339.94,-0.01,,-4.31,-31.2,-33.38
cansat,2025-10-29T22:00:55.566Z,2024-ASI-ROCKETRY-036,2025-10-29 15:26:17,27,-92.93,1001.46,25.24,0.01,03:30:19 IST,,,,,,0.01,-0.07,-0.11,-0.11,-0.11,,,,,339.94,-0.01,,-4.31,-31.2,-33.38
cansat,2025-10-29T22:00:56.862Z,2024-ASI-ROCKETRY-036,2025-10-29 15:26:24,28,-92.93,1001.46,25.24,0.01,03:30:19 IST,,,,,,0.01,-0.07,-0.11,-0.11,-0.11,,,,,339.94,-0.01,,-4.31,-31.2,-33.38
cansat,2025-10-29T22:00:57.993Z,2024-ASI-ROCKETRY-036,2025-10-29 15:26:24,29,-92.74,1001.54,25.24,0.01,03:30:19 IST,,,,,,0.01,-0.07,,,,,,,,339.94,-0.01,,-4.31,-31.2,-33.37
cansat,2025-10-29T22:00:59.099Z,2024-ASI-ROCKETRY-036,2025-10-29 15:26:24,30,-92.74,1001.54,25.24,0.01,03:30:19 IST,,,,,,0.01,-0.07,,,,,,,,339.51,-0.01,,-4.31,-31.2,-33.37
cansat,2025-10-29T22:01:01.173Z,2024-ASI-ROCKETRY-036,2025-10-29 15:26:24,31,-92.74,1001.54,25.24,0.01,03:30:19 IST,,,,,,0.01,-0.03,,,,,,,,339.51,-0.01,,-4.31,-31.2,-33.37
cansat,2025-10-29T22:01:02.202Z,2024-ASI-ROCKETRY-036,2025-10-29 15:26:24,32,-92.74,1001.54,25.24,0.01,03:30:19 IST,,,,,,0.01,-0.03,,,,,,,,339.51,-0.01,,-4.31,-31.2,-33.37
cansat,2025-10-29T22:01:03.489Z,2024-ASI-ROCKETRY-036,2025-10-29 15:26:31,33,-92.74,1001.54,25.24,0.01,03:30:19 IST,,,,,,0.01,-0.03,,,,,,,,339.51,-0.01,,-4.31,-31.2,-33.37
cansat,2025-10-29T22:01:04.649Z,2024-ASI-ROCKETRY-036,2025-10-29 15:26:31,34,-92.83,1001.52,25.26,0.02,03:30:19 IST,,,,,0.01,0.05,-0.03,,,,,,,,339.51,-0.01,,-4.3,-31.17,-33.38
cansat,2025-10-29T22:01:05.737Z,2024-ASI-ROCKETRY-036,2025-10-29 15:26:31,35,-92.83,1001.52,25.26,0.02,03:30:19 IST,,,,,0.01,0.05,-0.03,,,,,,,,339.94,-0.01,,-4.3,-31.17,-33.38
cansat,2025-10-29T22:01:07.852Z,2024-ASI-ROCKETRY-036,2025-10-29 15:26:31,36,-92.83,1001.52,25.26,0.02,03:30:19 IST,,,,,0.01,0.05,0.01,,,,,,,,339.94,-0.01,,-4.3,-31.17,-33.38
cansat,2025-10-29T22:01:08.852Z,2024-ASI-ROCKETRY-036,2025-10-29 15:26:31,37,-92.83,1001.52,25.26,0.02,03:30:19 IST,,,,,0.01,0.05,0.01,,,,,,,,339.94,-0.01,,-4.3,-31.17,-33.38
cansat,2025-10-29T22:01:10.159Z,2024-ASI-ROCKETRY-036,2025-10-29 15:26:37,38,-92.83,1001.52,25.26,0.02,03:31:09 IST,,,,,0.01,0.05,0.01,,,,,,,,339.94,-0.01,,-4.3,-31.17,-33.38
cansat,2025-10-29T22:01:11.279Z,2024-ASI-ROCKETRY-036,2025-10-29 15:26:37,39,-93.29,1001.53,25.28,0.02,03:31:09 IST,,,,,,,0.01,,,,,,,,339.94,-0.01,,-4.32,-31.18,-33.36
cansat,2025-10-29T22:01:12.399Z,2024-ASI-ROCKETRY-036,2025-10-29 15:26:37,40,-93.29,1001.53,25.28,0.02,03:31:09 IST,,,,,,,0.01,,,,,,,,339.51,-0.01,,-4.32,-31.18,-33.36
cansat,2025-10-29T22:01:14.486Z,2024-ASI-ROCKETRY-036,2025-10-29 15:26:37,41,-93.29,1001.53,25.28,0.02,03:31:09 IST,,,,,,,0.07,,,,,,,,339.51,-0.01,,-4.32,-31.18,-33.36
cansat,2025-10-29T22:01:15.499Z,2024-ASI-ROCKETRY-036,2025-10-29 15:26:37,42,-93.29,1001.53,25.28,0.02,03:31:09 IST,,,,,,,0.07,,,,,,,,339.51,-0.01,,-4.32,-31.18,-33.36
cansat,2025-10-29T22:01:16.780Z,2024-ASI-ROCKETRY-036,2025-10-29 15:26:44,43,-93.29,1001.53,25.28,0.02,03:31:09 IST,,,,,,,0.07,,,,,,,,339.51,-0.01,,-4.32,-31.18,-33.36
