Source,Timestamp,TEAM_ID,MISSION_TIME,TIME_STAMP,PACKET_NO,ALTITUDE,PRESSURE,TEMP,BATTERY_VOLTAGE,GPS_TIME,GPS_LAT,GPS_LON,GPS_ALT,GPS_SATS,AX,AY,AZ,GXS,GYS,GZS,FLIGHTSOFTWARE_STATUS,SURFACE_TEMP,SMOKE,CARBON_DIOXIDE,AMMONIA,METHANE,CARBON_MONOXIDE,PITCH,ROLL,YAW
rocket,2025-10-30T01:33:23.388Z,2024-ASI-ROCKET-036,2000-01-01 00:00:00,,173,-121.46,1004.83,22.43,6.9,,,,,,-0.05,,0.06,,,,,,,59.45,572.21,,,-91.24,-73.05,-171.21
rocket,2025-10-30T01:33:23.414Z,2024-ASI-ROCKET-036,2000-01-01 00:00:00,,174,-121.46,1004.83,22.43,6.9,,,,,,-0.05,,0.06,,,,,,,59.45,572.21,,,-91.24,-73.05,-171.21
rocket,2025-10-30T01:33:23.441Z,2024-ASI-ROCKET-036,2000-01-01 00:00:00,,175,-121.46,1004.83,22.43,6.9,,,,,,-0.05,,0.01,,,,,,,59.45,572.21,,,-91.24,-73.05,-171.21
rocket,2025-10-30T01:33:23.444Z,2024-ASI-ROCKET-036,2000-01-01 00:00:00,,176,-121.46,1004.83,22.43,6.9,,,,,,-0.05,-0.00.21,-91.24,-73.05,-171.21,,,,,,,,,,,
rocket,2025-10-30T01:33:23.472Z,2024-ASI-ROCKET-036,2000-01-01 00:00:00,,179,-121.37,1004.88,22.43,6.9,,,,,,-0.02,-0.01,0.01,,,,,,,56.83,564.68,,,-91.24,-73.05,-171.21
rocket,2025-10-30T01:33:23.493Z,2024-ASI-ROCKET-036,2000-01-01 00:00:00,,180,-121.37,2024-ASI-ROCKET-036,2000-01-01 00:00:00,181,-121.37,1004.88,22.43,6.9,,,,,,-0.02,-0.01,-0.01,,,,,,,,,56.83
rocket,2025-10-30T01:33:23.520Z,2024-ASI-ROCKET-036,2000-01-01 00:00:00,,182,-121.37,1004.88,22.43,6.9,,0.00002024-ASI-ROCKET-036,2000-01-01 00:00:00,184,-120.9,1004.83,22.42,6.9,,,,,,-0.01,,-0.01,,,,,
rocket,2025-10-30T01:33:23.560Z,2024-ASI-ROCKET-036,2000-01-01 00:00:00,,185,-120.9,1004.83,22.42,6.9,,0.00002024-ASI-ROCKET-036,2000-01-01 00:00:00,187,-120.9,1004.83,22.42,6.9,,,,,,-0.01,,-0.07,,,,,
rocket,2025-10-30T01:33:23.587Z,2024-ASI-ROCKET-036,2000-01-01 00:00:00,,188,-121.27,1004.87,22.44,6.9,,0.00002024-ASI-ROCKET-036,2000-01-01 00:00:00,190,-121.27,1004.87,22.44,6.9,,,,,,-0.05,0.04,0.06,,,,,
rocket,2025-10-30T01:33:23.612Z,2024-ASI-ROCKET-036,2000-01-01 00:00:00,,191,-121.27,1004.87,22.44,6.9,,0.0000002024-ASI-ROCKET-036,2000-01-01 00:00:00,192,-121.27,1004.87,22.44,6.9,,,,,,-0.05,0.04,0.06,,,,,
rocket,2025-10-30T01:33:23.623Z,2024-ASI-ROCKET-036,2000-01-01 00:00:00,,193,-121.37,1004.88,22.44,6.9,,0.0000002024-ASI-ROCKET-036,2000-01-01 00:00:00,195,-121.37,1004.88,22.44,6.9,,,,,,-0.05,0.04,0.01,,,-0.11,-0.22,
rocket,2025-10-30T01:33:23.690Z,2024-ASI-ROCKET-036,2000-01-01 00:00:00,,196,-121.37,1004.88,22.44,6.9,,0.00002024-ASI-ROCKET-036,2000-01-01 00:00:00,197,-121.37,1004.88,22.44,6.9,,,,,,-0.05,0.04,0.01,,,-0.11,-0.22,
rocket,2025-10-30T01:33:24.836Z,2024-ASI-ROCKET-036,2000-01-01 00:00:00,,198,-121.37,1004.79,22.45,6.9,,,,,,0.06,-0.04,0.01,-0.11,-0.22,,,,,59.45,572.21,,,-91.32,-73.05,-171.15
rocket,2025-10-30T01:33:25.852Z,2024-ASI-ROCKET-036,2000-01-01 00:00:00,,199,-121.37,1004.79,22.45,6.9,,,,,,0.06,-0.04,0.01,-0.11,-0.22,,,,,59.45,572.21,,,-91.32,-73.05,-171.15
cansat,2025-10-30T01:34:02.907Z,2024-ASI-ROCKET-036,,2000-01-01 00:00:00,228,-121.46,1004.83,22.44,6.85,,,,,,0.02,,0.12,,,,,,,572.21,59.45,,,-91.25,-73.14,-171.12
cansat,2025-10-30T01:34:11.342Z,2024-ASI-ROCKET-036,,2000-01-01 00:00:00,230,-121.46,1004.83,22.44,6.85,,,,,,0.02,,0.01,,,,,,,572.21,59.45,,,-91.25,-73.14,-171.12
cansat,2025-10-30T01:34:11.373Z,2024-ASI-ROCKET-036,,2000-01-01 00:00:00,231,-121.46,1004.83,22.44,6.85,,,,,,0.02,,0.01,,,,,,,572.21,59.45,,,-91.25,-73.14,-171.12
cansat,2025-10-30T01:34:11.478Z,2024-ASI-ROCKET-036,,2000-01-01 00:00:00,232,-121.46,1004.83,22.44,6.85,,,,,,0.02,,0.01,,,,,,,572.21,59.45,,,-91.25,-73.14,-171.12
cansat,2025-10-30T01:34:11.494Z,2024-ASI-ROCKET-036,,2000-01-01 00:00:00,233,-121.46,1004.79,22.45,6.9,,,,,,0.02,0.03,0.01,,,,,,,572.21,59.45,,,-91.25,-73.14,-171.12
cansat,2025-10-30T01:34:11.811Z,2024-ASI-ROCKET-036,,2000-01-01 00:00:00,234,-121.46,1004.79,22.45,6.9,,,,,,0.02,0.03,0.01,,,,,,,572.21,59.45,,,-91.25,-73.14,-171.12
cansat,2025-10-30T01:34:12.255Z,2024-ASI-ROCKET-036,,2000-01-01 00:00:00,235,-121.46,1004.79,22.45,6.9,,,,,,0.02,0.03,,,,,,,,572.21,59.45,,,-91.25,-73.14,-171.12
cansat,2025-10-30T01:34:13.309Z,2024-ASI-ROCKET-036,,2000-01-01 00:00:00,236,-121.46,1004.79,22.45,6.9,,,,,,0.02,0.03,,,,,,,,572.21,59.45,,,-91.25,-73.14,-171.12
cansat,2025-10-30T01:34:14.488Z,2024-ASI-ROCKET-036,,2000-01-01 00:00:00,237,-121.46,1004.79,22.45,6.9,,,,,,0.02,0.03,,,,,,,,572.21,59.45,,,-91.25,-73.14,-171.12
cansat,2025-10-30T01:34:15.662Z,2024-ASI-ROCKET-036,,2000-01-01 00:00:00,238,-121.27,1004.89,22.44,6.9,,,,,,-0.02,-0.01,,,,,,,,572.21,59.45,,,-91.25,-73.14,-171.12
cansat,2025-10-30T01:34:17.261Z,2024-ASI-ROCKET-036,,2000-01-01 00:00:00,239,-121.27,1004.89,22.44,6.9,,,,,,-0.02,-0.01,,,,,,,,572.21,59.45,,,-91.25,-73.14,-171.12
cansat,2025-10-30T01:34:18.707Z,2024-ASI-ROCKET-036,,2000-01-01 00:00:00,240,-121.27,1004.89,22.44,6.9,,,,,,-0.02,-0.01,-0.03,,,,,,,572.21,59.45,,,-91.25,-73.14,-171.12
cansat,2025-10-30T01:34:19.842Z,2024-ASI-ROCKET-036,,2000-01-01 00:00:00,241,-121.27,1004.89,22.44,6.9,,,,,,-0.02,-0.01,-0.03,,,,,,,572.21,59.45,,,-91.25,-73.14,-171.12
cansat,2025-10-30T01:34:20.999Z,2024-ASI-ROCKET-036,,2000-01-01 00:00:00,242,-121.27,1004.89,22.44,6.9,,,,,,-0.02,-0.01,-0.03,,,,,,,572.21,59.45,,,-91.25,-73.14,-171.12
cansat,2025-10-30T01:34:22.191Z,2024-ASI-ROCKET-036,,2000-01-01 00:00:00,243,-120.9,1004.8,22.44,6.86,,,,,,-0.02,-0.01,-0.03,,,,,,,572.21,59.45,,,-91.25,-73.14,-171.12
cansat,2025-10-30T01:34:23.112Z,2024-ASI-ROCKET-036,,2000-01-01 00:00:00,244,-120.9,1004.8,22.44,6.86,,,,,,-0.02,-0.01,-0.03,,,,,,,571.27,59.12,,,-91.25,-73.14,-171.12
cansat,2025-10-30T01:34:25.018Z,2024-ASI-ROCKET-036,,2000-01-01 00:00:00,245,-120.9,1004.8,22.44,6.86,,,,,,-0.02,-0.01,-0.06,,,,,,,571.27,59.12,,,-91.25,-73.14,-171.12
cansat,2025-10-30T01:34:26.033Z,2024-ASI-ROCKET-036,,2000-01-01 00:00:00,246,-120.9,1004.8,22.44,6.86,,,,,,-0.02,-0.01,-0.06,,,,,,,571.27,59.12,,,-91.25,-73.14,-171.12
cansat,2025-10-30T01:34:27.601Z,2024-ASI-ROCKET-036,,2000-01-01 00:00:00,247,-120.9,1004.8,22.44,6.86,,,,,,-0.02,-0.01,-0.06,,,,,,,571.27,59.12,,,-91.25,-73.14,-171.12
cansat,2025-10-30T01:34:28.589Z,2024-ASI-ROCKET-036,,2000-01-01 00:00:00,248,-121.27,1004.9,22.45,6.9,,,,,,0.01,-0.01,-0.06,,,,,,,571.27,59.12,,,-91.25,-73.14,-171.12
cansat,2025-10-30T01:34:29.573Z,2024-ASI-ROCKET-036,,2000-01-01 00:00:00,249,-121.27,1004.9,22.45,6.9,,,,,,0.01,-0.01,-0.06,,,,,,,571.58,59.23,,,-91.25,-73.14,-171.12
cansat,2025-10-30T01:34:38.712Z,2024-ASI-ROCKET-036,,2000-01-01 00:00:00,251,-121.27,1004.9,22.45,6.9,,,,,,0.01,-0.01,0.06,,,,,,,571.58,59.23,,,-91.25,-73.14,-171.12
cansat,2025-10-30T01:34:46.334Z,2024-ASI-ROCKET-036,,2000-01-01 00:00:00,253,-121.27,1004.86,22.45,6.9,,,,,,0.01,-0.01,0.06,,,,,,,571.58,59.23,,,-91.25,-73.14,-171.12
cansat,2025-10-30T01:34:46.556Z,2024-ASI-ROCKET-036,,2000-01-01 00:00:00,254,-121.27,1004.86,22.45,6.9,,,,,,0.01,-0.01,0.06,,,,,,,572.21,59.45,,,-91.25,-73.14,-171.12
cansat,2025-10-30T01:34:46.569Z,2024-ASI-ROCKET-036,,2000-01-01 00:00:00,255,-121.27,1004.86,22.45,6.9,,,,,,0.01,-0.01,,,,,,,,572.21,59.45,,,-91.25,-73.14,-171.12
cansat,2025-10-30T01:34:46.785Z,2024-ASI-ROCKET-036,,2000-01-01 00:00:00,256,-121.27,1004.86,22.45,6.9,,,,,,0.01,-0.01,,,,,,,,572.21,59.45,,,-91.25,-73.14,-171.12
cansat,2025-10-30T01:34:47.104Z,2024-ASI-ROCKET-036,,2000-01-01 00:00:00,257,-121.27,1004.86,22.45,6.9,,,,,,0.01,-0.01,,,,,,,,572.21,59.45,,,-91.25,-73.14,-171.12
cansat,2025-10-30T01:34:47.204Z,2024-ASI-ROCKET-036,,2000-01-01 00:00:00,258,-121.84,1004.88,22.45,6.9,,,,,,-0.02,,,,,,,,,572.21,59.45,,,-91.25,-73.14,-171.12
cansat,2025-10-30T01:34:54.903Z,2024-ASI-ROCKET-036,,2000-01-01 00:00:00,260,-121.84,1004.88,22.45,6.9,,,,,,-0.02,,0.09,,,,,,,572.21,59.45,,,-91.25,-73.14,-171.12
cansat,2025-10-30T01:34:54.988Z,2024-ASI-ROCKET-036,,2000-01-01 00:00:00,261,-121.84,1004.88,22.45,6.9,,,,,,-0.02,,0.09,,,,,,,572.21,59.45,,,-91.25,-73.14,-171.12
cansat,2025-10-30T01:34:55.000Z,2024-ASI-ROCKET-036,,2000-01-01 00:00:00,262,-121.84,1004.88,22.45,6.9,,,,,,-0.02,,0.09,,,,,,,572.21,59.45,,,-91.25,-73.14,-171.12
cansat,2025-10-30T01:34:55.034Z,2024-ASI-ROCKET-036,,2000-01-01 00:00:00,263,-121.27,1004.82,22.46,6.9,,,,,,0.02,0.04,0.09,,,,,,,572.21,59.45,,,-91.27,-73.14,-171.12
cansat,2025-10-30T01:34:55.109Z,2024-ASI-ROCKET-036,,2000-01-01 00:00:00,264,-121.27,1004.82,22.46,6.9,,,,,,0.02,0.04,0.09,,,,,,,565.31,57.05,,,-91.27,-73.14,-171.12
cansat,2025-10-30T01:34:55.152Z,2024-ASI-ROCKET-036,,2000-01-01 00:00:00,265,-121.27,1004.82,22.46,6.9,,,,,,0.02,0.04,-0.09,,,,,,,565.31,57.05,,,-91.27,-73.14,-171.12
cansat,2025-10-30T01:34:55.198Z,2024-ASI-ROCKET-036,,2000-01-01 00:00:00,266,-121.27,1004.82,22.46,6.9,,,,,,0.02,0.04,-0.09,,,,,,,565.31,57.05,,,-91.27,-73.14,-171.12
cansat,2025-10-30T01:34:55.220Z,2024-ASI-ROCKET-036,,2000-01-01 00:00:00,267,-121.27,1004.82,22.46,6.9,,,,,,0.02,0.04,-0.09,,,,,,,565.31,57.05,,,-91.27,-73.14,-171.12
cansat,2025-10-30T01:34:55.282Z,2024-ASI-ROCKET-036,,2000-01-01 00:00:00,268,-121.27,1004.84,22.45,6.9,,,,,,0.02,0.04,-0.09,,,,,,,565.31,57.05,,,-91.27,-73.14,-171.12
cansat,2025-10-30T01:34:55.293Z,2024-ASI-ROCKET-036,,2000-01-01 00:00:00,269,-121.27,1004.84,22.45,6.9,,,,,,0.02,0.04,-0.09,,,,,,,572.21,59.45,,,-91.27,-73.14,-171.12
cansat,2025-10-30T01:34:56.766Z,2024-ASI-ROCKET-036,,2000-01-01 00:00:00,270,-121.27,1004.84,22.45,6.9,,,,,,0.02,0.04,,,,,,,,572.21,59.45,,,-91.27,-73.14,-171.12
cansat,2025-10-30T01:35:08.385Z,2024-ASI-ROCKET-036,,2000-01-01 00:00:00,273,-121.27,1004.81,22.45,6.9,,,,,,-0.02,,,,,,,,,572.21,59.45,,,-91.27,-73.14,-171.12
cansat,2025-10-30T01:35:08.406Z,2024-ASI-ROCKET-036,,2000-01-01 00:00:00,274,-121.27,1004.81,22.45,6.9,,,,,,-0.02,,,,,,,,,572.21,59.45,,,-91.27,-73.14,-171.12
cansat,2025-10-30T01:35:08.424Z,2024-ASI-ROCKET-036,,2000-01-01 00:00:00,275,-121.27,1004.81,22.45,6.9,,,,,,-0.02,,,,,,,,,572.21,59.45,,,-91.27,-73.14,-171.12
cansat,2025-10-30T01:35:08.438Z,2024-ASI-ROCKET-036,,2000-01-01 00:00:00,276,-121.27,1004.81,22.45,6.9,,,,,,-0.02,,,,,,,,,572.21,59.45,,,-91.27,-73.14,-171.12
cansat,2025-10-30T01:35:08.488Z,2024-ASI-ROCKET-036,,2000-01-01 00:00:00,277,-121.27,1004.81,22.45,6.9,,,,,,-0.02,,,,,,,,,572.21,59.45,,,-91.27,-73.14,-171.12
cansat,2025-10-30T01:35:08.501Z,2024-ASI-ROCKET-036,,2000-01-01 00:00:00,278,-121.08,1004.87,22.46,6.9,,,,,,-0.03,-0.01,,,,,,,,572.21,59.45,,,-91.27,-73.12,-171.11
cansat,2025-10-30T01:35:08.506Z,2024-ASI-ROCKET-036,,2000-01-01 00:00:00,279,-121.08,1004.87,22.46,6.9,,,,,,-0.03,-0.01,,,,,,,,572.21,59.45,,,-91.27,-73.12,-171.11
cansat,2025-10-30T01:35:09.444Z,2024-ASI-ROCKET-036,,2000-01-01 00:00:00,280,-121.08,1004.87,22.46,6.9,,,,,,-0.03,-0.01,-0.03,,,,,,,572.21,59.45,,,-91.27,-73.12,-171.11
cansat,2025-10-30T01:35:10.454Z,2024-ASI-ROCKET-036,,2000-01-01 00:00:00,281,-121.08,1004.87,22.46,6.9,,,,,,-0.03,-0.01,-0.03,,,,,,,572.21,59.45,,,-91.27,-73.12,-171.11
cansat,2025-10-30T01:35:11.671Z,2024-ASI-ROCKET-036,,2000-01-01 00:00:00,282,-121.08,1004.87,22.46,6.9,,,,,,-0.03,-0.01,-0.03,,,,,,,572.21,59.45,,,-91.27,-73.12,-171.11
cansat,2025-10-30T01:35:12.756Z,2024-ASI-ROCKET-036,,2000-01-01 00:00:00,283,-120.71,1004.89,22.45,6.9,,,,,,-0.03,0.07,-0.03,,,,,,,572.21,59.45,,,-91.26,-73.13,-171.11
cansat,2025-10-30T01:35:13.770Z,2024-ASI-ROCKET-036,,2000-01-01 00:00:00,284,-120.71,1004.89,22.45,6.9,,,,,,-0.03,0.07,-0.03,,,,,,,571.58,59.23,,,-91.26,-73.13,-171.11
cansat,2025-10-30T01:35:15.786Z,2024-ASI-ROCKET-036,,2000-01-01 00:00:00,285,-120.71,1004.89,22.45,6.9,,,,,,-0.03,0.07,-0.06,,,,,,,571.58,59.23,,,-91.26,-73.13,-171.11
cansat,2025-10-30T01:35:17.173Z,2024-ASI-ROCKET-036,,2000-01-01 00:00:00,286,-120.71,1004.89,22.45,6.9,,,,,,-0.03,0.07,-0.06,,,,,,,571.58,59.23,,,-91.26,-73.13,-171.11
cansat,2025-10-30T01:35:18.522Z,2024-ASI-ROCKET-036,,2000-01-01 00:00:00,287,-120.71,1004.89,22.45,6.9,,,,,,-0.03,0.07,-0.06,,,,,,,571.58,59.23,,,-91.26,-73.13,-171.11
cansat,2025-10-30T01:35:19.085Z,2024-ASI-ROCKET-036,,2000-01-01 00:00:00,288,-120.99,1004.81,22.46,6.88,,,,,,0.01,0.04,-0.06,,,,,,,571.58,59.23,,,-91.26,-73.13,-171.11
cansat,2025-10-30T01:35:20.167Z,2024-ASI-ROCKET-036,,2000-01-01 00:00:00,289,-120.99,1004.81,22.46,6.88,,,,,,0.01,0.04,-0.06,,,,,,,572.21,59.45,,,-91.26,-73.13,-171.11
cansat,2025-10-30T01:35:22.140Z,2024-ASI-ROCKET-036,,2000-01-01 00:00:00,290,-120.99,1004.81,22.46,6.88,,,,,,0.01,0.04,0.04,,,,,,,572.21,59.45,,,-91.26,-73.13,-171.11
cansat,2025-10-30T01:35:23.138Z,2024-ASI-ROCKET-036,,2000-01-01 00:00:00,291,-120.99,1004.81,22.46,6.88,,,,,,0.01,0.04,0.04,,,,,,,572.21,59.45,,,-91.26,-73.13,-171.11
cansat,2025-10-30T01:35:24.436Z,2024-ASI-ROCKET-036,,2000-01-01 00:00:00,292,-120.99,1004.81,22.46,6.88,,,,,,0.01,0.04,0.04,,,,,,,572.21,59.45,,,-91.26,-73.13,-171.11
cansat,2025-10-30T01:35:25.496Z,2024-ASI-ROCKET-036,,2000-01-01 00:00:00,293,-121.18,1004.86,22.45,6.9,,,,,,-0.03,-0.04,0.04,,,,,,,572.21,59.45,,,-91.26,-73.13,-171.11
cansat,2025-10-30T01:35:26.515Z,2024-ASI-ROCKET-036,,2000-01-01 00:00:00,294,-121.18,1004.86,22.45,6.9,,,,,,-0.03,-0.04,0.04,,,,,,,572.21,59.45,,,-91.26,-73.13,-171.11
cansat,2025-10-30T01:35:28.530Z,2024-ASI-ROCKET-036,,2000-01-01 00:00:00,295,-121.18,1004.86,22.45,6.9,,,,,,-0.03,-0.04,0.03,,,,,,,572.21,59.45,,,-91.26,-73.13,-171.11
cansat,2025-10-30T01:35:29.584Z,2024-ASI-ROCKET-036,,2000-01-01 00:00:00,296,-121.18,1004.86,22.45,6.9,,,,,,-0.03,-0.04,0.03,,,,,,,572.21,59.45,,,-91.26,-73.13,-171.11
cansat,2025-10-30T01:35:30.818Z,2024-ASI-ROCKET-036,,2000-01-01 00:00:00,297,-121.18,1004.86,22.45,6.9,,,,,,-0.03,-0.04,0.03,,,,,,,572.21,59.45,,,-91.26,-73.13,-171.11
cansat,2025-10-30T01:35:31.862Z,2024-ASI-ROCKET-036,,2000-01-01 00:00:00,298,-121.65,1004.88,22.46,6.9,,,,,,0.05,-0.01,0.03,,,,,,,572.21,59.45,,,-91.26,-73.13,-171.11
cansat,2025-10-30T01:35:38.492Z,2024-ASI-ROCKET-036,,2000-01-01 00:00:00,299,-121.65,1004.88,22.46,6.9,,,,,,0.05,-0.01,0.03,,,,,,,571.89,59.34,,,-91.26,-73.13,-171.11
cansat,2025-10-30T01:35:38.567Z,2024-ASI-ROCKET-036,,2000-01-01 00:00:00,300,-121.65,1004.88,22.46,6.9,,,,,,0.05,-0.01,0.07,,,,,,,571.89,59.34,,,-91.26,-73.13,-171.11
cansat,2025-10-30T01:35:38.598Z,2024-ASI-ROCKET-036,,2000-01-01 00:00:00,301,-121.65,1004.88,22.46,6.9,,,,,,0.05,-0.01,0.07,,,,,,,571.89,59.34,,,-91.26,-73.13,-171.11
cansat,2025-10-30T01:35:38.635Z,2024-ASI-ROCKET-036,,2000-01-01 00:00:00,302,-121.65,1004.88,22.46,6.9,,,,,,0.05,-0.01,0.07,,,,,,,571.89,59.34,,,-91.26,-73.13,-171.11
cansat,2025-10-30T01:35:38.649Z,2024-ASI-ROCKET-036,,2000-01-01 00:00:00,303,-121.27,1004.92,22.46,6.9,,,,,,0.05,-0.01,0.07,,,,,,,571.89,59.34,,,-91.26,-73.13,-171.11
cansat,2025-10-30T01:35:39.341Z,2024-ASI-ROCKET-036,,2000-01-01 00:00:00,304,-121.27,1004.92,22.46,6.9,,,,,,0.05,-0.01,0.07,,,,,,,571.89,59.34,,,-91.26,-73.13,-171.11
cansat,2025-10-30T01:35:41.301Z,2024-ASI-ROCKET-036,,2000-01-01 00:00:00,305,-121.27,1004.92,22.46,6.9,,,,,,0.05,-0.01,-0.06,,,,,,,571.89,59.34,,,-91.26,-73.13,-171.11
cansat,2025-10-30T01:35:42.235Z,2024-ASI-ROCKET-036,,2000-01-01 00:00:00,306,-121.27,1004.92,22.46,6.9,,,,,,0.05,-0.01,-0.06,,,,,,,571.89,59.34,,,-91.26,-73.13,-171.11
